[{"Area":"萬華","Name":"SKATEBOARDING","Address":"台北市萬華區峨嵋街103巷7號","Tel":"(02)2375-7609\n她都在店裡","OpeningHours":"Mon-Sun 13:00-22:00","URL":"http://www.skateboarding.com.tw/","X":null,"Y":null},{"Area":"北投","Name":"爐鍋咖啡","Address":"台北市北投區大度路三段296巷39號","Tel":"(02)2891-5990 ","OpeningHours":"Tue-Fri 15:00-22:00\nSat 15:00-23:00                                                  Sun 15:00-22:00(Mon off)","URL":"http://www.wretch.cc/blog/luguo","X":null,"Y":null},{"Area":"萬華","Name":"continued","Address":"台北市萬華區武昌街二段85號之3","Tel":"(02)2375-8884","OpeningHours":"Mon-Fri 13:00-23:00                      Sat-Sun 12:00-23:00","URL":"http://www.continued.tw/","X":null,"Y":null},{"Area":"萬華","Name":"好媽媽風味料理","Address":"台北市萬華區環河南路二段102號2樓","Tel":"0915-351-520","OpeningHours":"Tue-Sun 11:00-22:00","URL":null,"X":null,"Y":null},{"Area":"溫羅汀","Name":"晶晶複合式商店","Address":"台北市羅斯福路三段210巷8弄8號1樓","Tel":"(02)2364-2006","OpeningHours":"Mon-Sun 13:30-21:30","URL":"http://www.ginginbooks.com","X":null,"Y":null},{"Area":"萬華","Name":"衣美服飾","Address":"台北市萬華區大理街45號","Tel":"(02)2304-5168","OpeningHours":"Mon-Sun 10:00-22:00","URL":null,"X":null,"Y":null},{"Area":"萬華","Name":"Brick's Burger","Address":"台北市萬華區漢口街二段53巷17號","Tel":"(02)2388-6669","OpeningHours":"Mon-Sun 13:00-22:00\nSat 12:00-23:00 Sun 12:00-22:00","URL":"http://zh-tw.facebook.com/pages/Bricks-Burger/108731375816601","X":null,"Y":null},{"Area":"萬華","Name":"電影主題公園","Address":"台北市萬華區康定路19號","Tel":"(02)2312-3717","OpeningHours":"Mon-Sun 0:00-24:00","URL":"http://www.cinemapark.org.tw/","X":null,"Y":null},{"Area":"大稻埕","Name":"Poète i","Address":"台北市民樂街68號2樓","Tel":"0927-830-601","OpeningHours":"需電話預約","URL":"https://www.facebook.com/pages/Po%C3%A8te-i/113122535457993","X":null,"Y":null},{"Area":"溫羅汀","Name":"好窩咖啡","Address":"台北市溫州街74巷3弄5號","Tel":"(02)2367-8577","OpeningHours":"Tue-Sun 12:00-24:00","URL":null,"X":null,"Y":null},{"Area":"萬華","Name":"玉美人孕婦裝","Address":"台北市萬華區康定路271號1-2樓","Tel":"(02)8966-9762","OpeningHours":"Mon-Sun 10:00-21:00","URL":"http://www.ymr.com.tw/","X":null,"Y":null},{"Area":"萬華","Name":"貳拾陸巷│Somebody Cafe","Address":"台北市萬華區西寧南路131號2樓","Tel":"(02)2311-2371","OpeningHours":"Mon-Sun 13:00~22:00","URL":"http://blog.yam.com/creative26","X":null,"Y":null},{"Area":"萬華","Name":"九段工坊","Address":"台北市萬華區和平西路三段102號2樓","Tel":"(02)2302-5841","OpeningHours":"Mon-Sat 11:00-20:00\nSun 12:00-18:00","URL":"http://tw.myblog.yahoo.com/aqtyxsbubbs/","X":null,"Y":null},{"Area":"溫羅汀","Name":"Kick cafe","Address":"台北市羅斯福路三段316巷16號","Tel":"(02)2368-0708","OpeningHours":"Mon-Sun 11:30-22:00","URL":"http://www.wretch.cc/blog/kickcafe","X":null,"Y":null},{"Area":"北投","Name":"北投文物館","Address":"台北市北投區幽雅路32號","Tel":"(02)2891-2318","OpeningHours":"Tue-Sun 10:00-17:30(Mon off) ","URL":"http://www.folkartsm.org.tw/","X":null,"Y":null},{"Area":"溫羅汀","Name":"女僕之心桌遊吧","Address":"台北市羅斯福路四段52巷2號B1","Tel":"(02)2368-4455","OpeningHours":"Mon-Thu 17:00-22:00\nFri-Sun 13:30-22:30","URL":"http://www.facebook.com/maidsheart","X":null,"Y":null},{"Area":"萬華","Name":"也門町精品咖啡","Address":"台北市萬華區康定路19號","Tel":"(02)2361-6138","OpeningHours":"Tue-Sat 11:30-21:30 (Mon off)","URL":"http://tw.myblog.yahoo.com/cafe-51688/","X":null,"Y":null},{"Area":"萬華","Name":"長壽號","Address":"臺北市南寧路56號","Tel":"(02)2308-7987","OpeningHours":"Mon-Sun 08:00-19:00","URL":null,"X":null,"Y":null},{"Area":"萬華","Name":"糖?文化園區","Address":"台北市萬華區大理街132-10號","Tel":"(02)-2306-7975","OpeningHours":"Tue-Sun 10:00-17:00 (Mon off)","URL":"http://www.ttbca.org.tw/index1.htm","X":null,"Y":null},{"Area":"萬華","Name":"Keven紋身彩繪藝術工作室","Address":"台北市萬華區西寧南路129號(第七櫃)","Tel":"(02)2389-8018","OpeningHours":"Mon-Fri 12:00-22:30                       Sat-Sun 11:00-23:00","URL":"http://www.tattoo.idv.tw/","X":null,"Y":null},{"Area":"萬華","Name":"So Free Pizza","Address":"台北市萬華區西寧南路50巷1號","Tel":"(02)2314-6225","OpeningHours":"Sun-Sat 11:30~21:00","URL":"http://www.wretch.cc/blog/sofreepizza","X":null,"Y":null},{"Area":"北投","Name":"三古手感坊","Address":"台北市北投區泉源路 11號1樓","Tel":"(02)2893-5818","OpeningHours":"Tue-Sun 14:00-21:30 ","URL":null,"X":null,"Y":null},{"Area":"溫羅汀","Name":"ㄇㄞˋ點子","Address":"台北市新生南路三段84-6號3樓","Tel":"(02)2363-1371","OpeningHours":null,"URL":"http://www.mydesy.com","X":null,"Y":null},{"Area":"大稻埕","Name":"127公店（URS127）","Address":"臺北市迪化街一段127號","Tel":"0937-396-040","OpeningHours":"Tue-Sun 10:00-17:00","URL":"http://tku127.blogspot.tw/","X":null,"Y":null},{"Area":"北投","Name":"高馡咖啡","Address":"台北市北投區泉源路12號3樓","Tel":"(02)2893-7543","OpeningHours":"Tue-Wed 11:30-18:30\nThu-Sat 11:30-21:30\nSun 11:30-18:30(Mon off)","URL":"http://www.gaofei.tw/","X":null,"Y":null},{"Area":"北投","Name":"臺北市政府原住民族事務委員會凱達格蘭文化館","Address":"台北市北投區中山路3-1號","Tel":"(02)2898-6500","OpeningHours":" Tue-Sun 09:00 - 17:00(Mon off)","URL":"http://www.ketagalan.taipei.gov.tw/","X":null,"Y":null},{"Area":"大稻埕","Name":"小藝埕","Address":"台北市迪化街一段32巷1號","Tel":"(02)2552-1367","OpeningHours":"Mon-Sun 09:00-19:00","URL":"http://www.artyard.tw/","X":null,"Y":null},{"Area":"大稻埕","Name":"王有記茶行","Address":"台北市重慶北路2段64巷26號","Tel":"(02)2555-9164","OpeningHours":"Mon-Sat 09:00-20:30","URL":"http://www.wangtea.com.tw/","X":null,"Y":null},{"Area":"大稻埕","Name":"思劇場","Address":"台北市迪化街一段32巷1號","Tel":"(02)2552-1321","OpeningHours":"Mon-Sun 09:00-19:00","URL":"http://www.artyard.tw/","X":null,"Y":null},{"Area":"萬華","Name":"西門橙舍","Address":"台北市萬華區漢口街二段41號","Tel":"(02)2559-0202","OpeningHours":"需電話預約","URL":"http://www.taipeicityhostel.com/","X":null,"Y":null},{"Area":"溫羅汀","Name":"Here café","Address":"台北市羅斯福路五段170巷37號","Tel":"(02)2930-8983","OpeningHours":"Tue-Sun 9:00-22:00","URL":null,"X":null,"Y":null},{"Area":"溫羅汀","Name":"Stone Dream","Address":"台北市溫州街74巷8號","Tel":"(02)2368-9073","OpeningHours":"Tue-Sun  13:30-20:30","URL":"http://www.facebook.com/StoneDream","X":null,"Y":null},{"Area":"萬華","Name":"華記手畫佛神像","Address":"台北市萬華區西園路一段103號","Tel":"(02)2302-1600","OpeningHours":"Mon-Sat 10:00-22:00\nSun 10:00-18:00","URL":null,"X":null,"Y":null},{"Area":"溫羅汀","Name":"滴咖啡","Address":"台北市新生南路三段76巷1號","Tel":"(02)2368-4222","OpeningHours":"Sun-Thu 10:30-21:00\nFri-Sat 10:30-00:00","URL":"http://www.dcoffee.net","X":null,"Y":null},{"Area":"北投","Name":"台北市溫泉發展協會","Address":"台北市北投區光明路224號","Tel":"(02)2895-5418","OpeningHours":"不對外開放","URL":"http://www.taipeisprings.org.tw/","X":null,"Y":null},{"Area":"溫羅汀","Name":"結構群","Address":"台北市新生南路三段98巷1號1樓","Tel":"(02)2362-8951","OpeningHours":"Mon-Sun  11:30-22:00","URL":"http://www.facebook.com/pages/結構群台大店/279369484370","X":null,"Y":null},{"Area":"溫羅汀","Name":"Infinity Café","Address":"台北市羅斯福路三段244巷14號","Tel":"(02)2365-2212","OpeningHours":"Mon-Sun 10:00-21:00","URL":"http://www.facebook.com/infinitycafe8","X":null,"Y":null},{"Area":"北投","Name":"水都溫泉會館","Address":"台北市北投區光明路283號","Tel":"(02)2897-9060","OpeningHours":"需電話預約","URL":"http://www.spaspringresort.com.tw/home/","X":null,"Y":null},{"Area":"溫羅汀","Name":"莎慕瓦典藏茶館","Address":"台北市新生南路三段76巷5-1號","Tel":"(02)8369-5072","OpeningHours":"Mon-Sun13:00-23:00","URL":"http://www.facebook.com/#!/pages/%E8%8E%8E%E6%85%95%E7%93%A6%E5%85%B8%E8%97%8F%E8%8C%B6%E9%A4%A8/150614704972516","X":null,"Y":null},{"Area":"萬華","Name":"麵包廚房","Address":"台北市萬華區峨嵋街66號","Tel":"(02)2311-9866","OpeningHours":"Tue-Sat 11:00-21:30","URL":"http://www.facebook.com/pages/麵包廚房/283672198330836","X":null,"Y":null},{"Area":"溫羅汀","Name":"Rebirth Café&Restaurant","Address":"台北市新生南路3段86巷19號","Tel":"(02)2368-9866","OpeningHours":"Mon-Sun 12:00-24:00","URL":"http://www.facebook.com/Rebirth.james","X":null,"Y":null},{"Area":"溫羅汀","Name":"咖啡逗留 Café Séjour","Address":"台北市羅斯福路3段283巷38號","Tel":"(02)2368-4884","OpeningHours":"Wed-Sun 11:00-22:00","URL":"http://www.facebook.com/pages/caffe-4mano/383046225295#!/CafeSejour","X":null,"Y":null},{"Area":"萬華","Name":"歐芬內衣大理店","Address":"台北市萬華區大理街42巷3號","Tel":"(02)2302-8632","OpeningHours":"Mon-Sat 10:00-21:00","URL":"http://www.facebook.com/eurofane","X":null,"Y":null},{"Area":"萬華","Name":"西門徒步區街區發展促進會","Address":"台北市萬華區漢中街135號11樓-1","Tel":"(02)-2375-4205","OpeningHours":"不對外開放","URL":"http://www.ximen.com.tw/","X":null,"Y":null},{"Area":"北投","Name":"財團法人台北市北投文化基金會","Address":"台北市北投區中央南路一段45號之1","Tel":"(02)2891-7453","OpeningHours":"不對外開放","URL":"http://www.ptcf.org.tw/","X":null,"Y":null},{"Area":"溫羅汀","Name":"永樂座","Address":"台北市羅斯福路三段244巷14號2樓","Tel":"(02)2368-6808","OpeningHours":"Mon-Sun 13:00-22:00","URL":"http://www.facebook.com/eirakuza","X":null,"Y":null},{"Area":"溫羅汀","Name":"愛之船拉拉時尚概念館","Address":"台北市羅斯福路三段240巷11號","Tel":"(02)2364-8757","OpeningHours":"Tue-Sun  14:00-22:00","URL":"http://tw.myblog.yahoo.com/LoVEBOAT-Love1314/","X":null,"Y":null},{"Area":"溫羅汀","Name":"So Free Pizza & Cheese","Address":"台北市羅斯福路三段283巷28號1樓","Tel":"(02)2364-3351","OpeningHours":"Mon-Sun 11:30-21:00","URL":"http://www.wretch.cc/blog/sofreepizza","X":null,"Y":null},{"Area":"溫羅汀","Name":"色瞇瞇海報龍","Address":"台北市汀洲路三段168號2樓","Tel":"(02)2365-3076","OpeningHours":"Mon-Sat 13:00-22:00","URL":"http://www.gongguan.com.tw","X":null,"Y":null},{"Area":"北投","Name":"荷蔓咖啡坊","Address":"台北市北投區泉源路28-3號","Tel":"(02)2893-5770","OpeningHours":"Sun-Wed 10:00-20:30                                       Fri-Sat 10:00-22:00","URL":"http://www.facebook.com/hermacafe","X":null,"Y":null},{"Area":"溫羅汀","Name":"人性空間","Address":"台北市新生南路三段60巷7號","Tel":"(02)2362-3529","OpeningHours":"Mon-Sun 11:00-23:00","URL":null,"X":null,"Y":null},{"Area":"萬華","Name":"台北多元藝術空間青少年發展促進會","Address":"台北市萬華區康定路19號","Tel":"(02)2388-8792","OpeningHours":"不對外開放","URL":"http://www.tya175.org/","X":null,"Y":null},{"Area":"溫羅汀","Name":"唐山書店","Address":"台北市大安區羅斯福路三段333巷9號B1","Tel":"02-2363-3072","OpeningHours":"Mon-Fri 9:00-22:00\nSat-Sun 10:00-22:00","URL":"http://blog.yam.com/tsbooks","X":null,"Y":null},{"Area":"萬華","Name":"富山蒸籠","Address":"台北市萬華區桂林路224巷1號","Tel":"(02)2306-0066","OpeningHours":"Mon-Sun 07:30-22:30","URL":"http://tw.myblog.yahoo.com/jw!EuYavoqRGRm57wLOiOokCIod5g--","X":null,"Y":null},{"Area":"北投","Name":"龍邦僑園會館","Address":"台北市北投區泉源路25號","Tel":"(02)2893-9922 ","OpeningHours":"需電話預約","URL":"http://cy.longbon.com.tw/","X":null,"Y":null},{"Area":"萬華","Name":"Choir 快樂美式餐廳","Address":"台北市萬華區武昌街二段85-2號","Tel":"(02)2370-7400","OpeningHours":"Mon-Sun 11:30-02:00","URL":"http://www.facebook.com/pages/Choir-Cafe/263664887006653","X":null,"Y":null},{"Area":"大稻埕","Name":"民藝埕","Address":"台北市迪化街一段67號","Tel":"(02)2552-1367","OpeningHours":"Mon-Sun 09:00-19:00","URL":"http://www.artyard.tw/","X":null,"Y":null},{"Area":"北投","Name":"琉金穗月","Address":"台北市北投路一段7號3樓","Tel":"(02)2898-4142","OpeningHours":"需電話預約","URL":"http://www.golden-moon.com.tw/","X":null,"Y":null},{"Area":"大稻埕","Name":"Nostalgic Future : 意思意思","Address":"台北市迪化街一段14巷14號","Tel":"0932-209-034","OpeningHours":"Fri-Mon 14:00-21:00","URL":"http://www.nostalgicfuture.com","X":null,"Y":null},{"Area":"萬華","Name":"阿布豆","Address":"台北市萬華區萬大路285號1樓","Tel":"(02)2309-4926","OpeningHours":"Mon-Fri 09:30-20:30                               Wed 09:30-18:00                                     Sat-Sun 09:30-17:00","URL":"http://www.sweethause.com.tw/","X":null,"Y":null},{"Area":"大稻埕","Name":"台客藍","Address":"台北市迪化街一段32巷1號","Tel":"(02)2552-1367","OpeningHours":"Mon-Sun 09:00-19:00","URL":"http://www.artyard.tw/","X":null,"Y":null},{"Area":"萬華","Name":"西門町花莉特效化妝","Address":"台北市萬華區漢口街二段50號","Tel":"(02)2381-3220","OpeningHours":"Mon-Sun 13:00-21:00","URL":"http://www.bennye.com.tw/bennyetaiwan/","X":null,"Y":null},{"Area":"萬華","Name":"阿猜嬤甜湯","Address":"台北市萬華區華西街3號","Tel":"(02)2361-8697","OpeningHours":"Mon-Sun 15:00-22:00","URL":null,"X":null,"Y":null},{"Area":"萬華","Name":"妙佛園佛具","Address":"台北市萬華區西園路一段162號","Tel":"(02)2302-9072","OpeningHours":"Mon-Sun 09:30-22:30","URL":"http://tw.myblog.yahoo.com/mfy2260/","X":null,"Y":null},{"Area":"大稻埕","Name":"十字軒糕餅鋪","Address":"台北市延平北路二段68號","Tel":"(02)2558-0989","OpeningHours":"Mon-Sun 08:00-22:00","URL":"http://www.ten-cake.com.tw/","X":null,"Y":null},{"Area":"溫羅汀","Name":"H*ours Café","Address":"台北市羅斯福路三段210巷8弄12號1樓","Tel":"(02)2364-2742","OpeningHours":"Mon-Sun 14:00-23:00","URL":"http://www.facebook.com/#!/hours.cafe","X":null,"Y":null},{"Area":"萬華","Name":"LEAF HAIR DESIGN","Address":"台北市萬華區昆明街96巷8號","Tel":"(02)2388-8088","OpeningHours":"Tue-Sun 13:00-21:00","URL":"http://leafxogo7.pixnet.net/blog","X":null,"Y":null},{"Area":"北投","Name":"果實X. PLACE","Address":"台北市北投區溫泉路110-1號1樓","Tel":"(02)2893-9325","OpeningHours":"Fri-Sun11:30-21:00","URL":"http://www.facebook.com/XplaceFB","X":null,"Y":null},{"Area":"北投","Name":"I'M HERE","Address":"台北市北投區承德路七段401巷989弄79號","Tel":"(02)2898-6607","OpeningHours":"Sat-Sun 07:00-22:00                                       Tue-Fri 13:00-22-00(Mon off)","URL":"http://zh-tw.facebook.com/imhere.coffee?sk=info","X":null,"Y":null},{"Area":"北投","Name":"布查花園法式料理(陽明店)","Address":"台北市北投區立農街二段155號","Tel":"(02)2820-9920 ","OpeningHours":"Mon-Sun 11:30-14:00, 17:00-21:00","URL":"http://www.escargot.htm.tw/","X":null,"Y":null},{"Area":"大稻埕","Name":"林柳新偶戲館","Address":"台北市西寧北路79號","Tel":"(02)2556-8909","OpeningHours":"Tue-Sun 10:00-17:00","URL":"http://www.taipeipuppet.com/","X":null,"Y":null},{"Area":"大稻埕","Name":"秦境","Address":"台北市民樂街153號","Tel":"0921-067-050","OpeningHours":"Sun-Fri 12:00-20:30\nSat 12:00-18:00 (Tue off) ","URL":null,"X":null,"Y":null},{"Area":"大稻埕","Name":"台北霞海城隍廟","Address":"台北市大同區迪化街一段61號","Tel":"(02)2558-0346","OpeningHours":"Mon-Sun 06:16-19:47","URL":"http://www.tpecitygod.org/","X":null,"Y":null},{"Area":"萬華","Name":"Crystal Rose 水晶玫瑰緞帶專賣店","Address":"台北市萬華區艋舺大道188號","Tel":"(02)2302-3968","OpeningHours":"Mon-Fri 11:30-21:00\nSat-Sun 12:30-17:30                    ","URL":"http://www.cr-ribbon.com/","X":null,"Y":null},{"Area":"萬華","Name":"天順蔘藥青草行","Address":"台北市萬華區廣州街199號","Tel":"(02)2336-3991","OpeningHours":"Mon-Sat 09:00-22:00","URL":null,"X":null,"Y":null},{"Area":"溫羅汀","Name":"古今書廊 二手書店","Address":"台北市羅斯福路三段244巷17‧23號","Tel":"(02)2367-1797 (02)2363-6358","OpeningHours":"Mon-Sun  10:30-22:00","URL":"http://pnpbook.blogspot.tw","X":null,"Y":null},{"Area":"北投","Name":"北藝風概念店","Address":"台北市北投區學園路1號(國立臺北藝術大學內)","Tel":"(02)2893-8130","OpeningHours":"Sat 12:00-20:00  Sun 12:00-18:00","URL":"http://www.kdarts.org.tw/","X":null,"Y":null},{"Area":"北投","Name":"鳳甲美術館","Address":"台北市北投區大業路166號11樓","Tel":"(02)2894-2272","OpeningHours":"Tue-Sun 10:30-17:30(Mon off)","URL":"http://www.hong-gah.org.tw/","X":null,"Y":null},{"Area":"萬華","Name":"龍山佛具店","Address":"台北市萬華區西園路一段142號、144號","Tel":"(02)2306-6970","OpeningHours":"Mon-Sun 08:00-22:00","URL":"http://shop860.ecnow.tw/index.php?gOo=shop.dwt","X":null,"Y":null},{"Area":"北投","Name":"北投公民會館","Address":"台北市北投區中山路5-7號","Tel":"(02)2897-4760","OpeningHours":"Mon-Sun09：00-12：00,14：00-17：00\n(Mon off)","URL":"http://www.btdo.taipei.gov.tw/np.asp?ctNode=22789&mp=124081","X":null,"Y":null},{"Area":"大稻埕","Name":"印花樂","Address":"台北市迪化街一段32巷1號","Tel":"(02)2552-1321","OpeningHours":"Mon-Sun 09:00-19:00","URL":"http://www.artyard.tw/","X":null,"Y":null},{"Area":"溫羅汀","Name":"泡麵達人館","Address":"台北市羅斯福路三段283巷19弄2號1樓","Tel":"(02)3365-2375\n(02)2369-0604","OpeningHours":"Tue-Sun 11:00-14:00\n                16:30-21:30","URL":null,"X":null,"Y":null},{"Area":"北投","Name":"琉園水晶博物館","Address":"台北市北投區中央北路四段515巷16號","Tel":"(02)2895-8861","OpeningHours":"Tue-Sun 09:00-17:00(Mon off)   ","URL":"http://www.tittotmuseum.com/","X":null,"Y":null},{"Area":"溫羅汀","Name":"安卓藝術新生16概念場所","Address":"台北市新生南路三段16-1號","Tel":"(02)2363-1011","OpeningHours":"Tue-Sun 10:00-19:00 (Mon off)","URL":"http://art-msac.com/msac2012","X":null,"Y":null},{"Area":"萬華","Name":"老濟安青草店","Address":"台北市萬華區西昌街84號","Tel":"(02)2314-1878","OpeningHours":"Mon-Sat 09:00-22:00","URL":"http://www.facebook.com/pages/老濟安青草店/193850374018088","X":null,"Y":null},{"Area":"溫羅汀","Name":"The Wall","Address":"台北市文山區羅斯福路四段200號","Tel":"(02)2930-0162","OpeningHours":"Tue-Sat  15:00-23:00","URL":"http://www.thewall.com.tw","X":null,"Y":null},{"Area":"溫羅汀","Name":"寶藏巖","Address":"台北市汀州路三段230巷14弄2號","Tel":"(02)2364-5313","OpeningHours":"Tue-Sun 11:00-22:00 (Mon off)","URL":"http://www.artistvillage.org/thav","X":null,"Y":null},{"Area":"溫羅汀","Name":"艾客米桌上遊戲世界","Address":"台北市羅斯福路三段273號2樓","Tel":"(02)2369-1991","OpeningHours":"Mon-Sun 15:30-21:30","URL":"http://www.akmigames.com","X":null,"Y":null},{"Area":"萬華","Name":"太和餅舖","Address":"台北市萬華區康定路300號","Tel":"(02)2306-9629","OpeningHours":"Mon-Sun 08:00-22:30","URL":"http://www.facebook.com/taiho300","X":null,"Y":null},{"Area":"萬華","Name":"MANIA 魅尼亞","Address":"台北市萬華區昆明街96巷12號","Tel":"(02)2375-7995","OpeningHours":"Mon-Fri 14:00-22:00                       Sat-Sun 14:00-22:30","URL":"http://blog.maniacrew.com/","X":null,"Y":null},{"Area":"萬華","Name":"西門紅樓","Address":"台北市萬華區成都路10號","Tel":"(02)2311-9380","OpeningHours":"Tue-Sun 11:00-21:30 (Mon off)","URL":"http://www.redhouse.org.tw/Index_New.aspx","X":null,"Y":null},{"Area":"萬華","Name":"Story","Address":"台北市萬華區昆明街96巷8-1號","Tel":"(02)2375-1728","OpeningHours":"Mon-Sun 14:00-22:00","URL":"http://www.facebook.com/STORY2008","X":null,"Y":null},{"Area":"北投","Name":"阿嬌的店","Address":"台北市北投區光明路220號4樓304室","Tel":"(02)2892-3613","OpeningHours":"需電話預約","URL":"http://www.aj-house.com/","X":null,"Y":null},{"Area":"萬華","Name":"萬安青草店","Address":"台北市萬華區西昌街224巷7號","Tel":"(02)2302-4290","OpeningHours":"Mon-Sat 08:00-22:00","URL":"http://www.facebook.com/pages/萬安青草店/123289961037900","X":null,"Y":null},{"Area":"大稻埕","Name":"大稻埕戲苑","Address":"台北市迪化街一段21號8-9樓","Tel":"(02)2556-9101","OpeningHours":"Tue-Sat 09:00-21:00\nSun 09:00-18:00","URL":"http://www.wretch.cc/blog/dadaochen","X":null,"Y":null},{"Area":"北投","Name":"DAISY DAY ","Address":"台北市北投區中正街69號","Tel":"(02)2897-0017","OpeningHours":"Mon-Sun 11:00-21:00","URL":"https://www.facebook.com/DaisyDay.tw","X":null,"Y":null},{"Area":"萬華","Name":"樂舞戲劇舞蹈服裝","Address":"台北市萬華區漢中街160號","Tel":"(02)2382-2421","OpeningHours":"Mon-Sat 09:00-20:00","URL":"http://www.yuewu.com.tw/html/","X":null,"Y":null},{"Area":"萬華","Name":"in89豪華數位影城","Address":"台北市武昌街二段89號","Tel":"(02)-2331-5077","OpeningHours":"Mon-Sun 09:00-02:00","URL":"http://www.in89.com.tw","X":null,"Y":null},{"Area":"溫羅汀","Name":"Prefer Market","Address":"台北市溫州街82號","Tel":"(02)2175-3201","OpeningHours":"Mon-Sun 12:00-22:00","URL":null,"X":null,"Y":null},{"Area":"萬華","Name":"二和珍傳統糕餅舖","Address":"台北市萬華區康定路308號","Tel":"(02)2306-1234","OpeningHours":"Mon-Sun 08:00-22:00","URL":null,"X":null,"Y":null},{"Area":"萬華","Name":"老明玉香舖","Address":"台北市貴陽街2段155號","Tel":"(02)2381-5569","OpeningHours":"Mon-Sun 08:00-22:30","URL":null,"X":null,"Y":null},{"Area":"溫羅汀","Name":"書林書店","Address":"台北市新生南路三段88號2樓之5","Tel":"(02)2365-8617","OpeningHours":"Mon-Fri 09:00-21:00 \nSat-Sun 11:00-19:00","URL":"http://www.bookman.com.tw","X":null,"Y":null},{"Area":"北投","Name":"牙口咖啡","Address":"台北市北投區大興街9巷45號1樓","Tel":"(02)2896-4048","OpeningHours":"Mon-Sun 11:30-21:00","URL":null,"X":null,"Y":null},{"Area":"溫羅汀","Name":"caffe' 4mano","Address":"台北市羅斯福路三段284巷9號","Tel":"(02)2365-3089","OpeningHours":"Mon-Sun 12:00-22:30","URL":"http://www.facebook.com/pages/caffe-4mano/383046225295","X":null,"Y":null},{"Area":"溫羅汀","Name":"i prefer 公館薰衣草店","Address":"台北市羅斯福路四段52巷10號","Tel":"(02)2793-4889","OpeningHours":"Mon-Sun 12:00-22:00","URL":"http://www.prefer.com.tw","X":null,"Y":null},{"Area":"大稻埕","Name":"角斯‧角斯","Address":"台北市民樂街4號2樓","Tel":"(02)2558-6408 ","OpeningHours":"不對外開放","URL":"https://www.facebook.com/creatchaos","X":null,"Y":null},{"Area":"大稻埕","Name":"爐鍋咖啡","Address":"台北市迪化街一段32巷1號","Tel":"(02)2552-1321","OpeningHours":"Mon-Sun 09:00-19:00","URL":"http://www.artyard.tw/","X":null,"Y":null},{"Area":"溫羅汀","Name":"回家咖啡","Address":"台北市羅斯福路三段283巷21弄6號","Tel":"(02)2364-9108","OpeningHours":"Mon-Sat 11:00-21:00","URL":"http://www.backhome.com.tw/cafe.html","X":null,"Y":null},{"Area":"大稻埕","Name":"天馬茶房","Address":"台北市南京西路189號3F","Tel":"(02)2555-8508","OpeningHours":"需電話預約","URL":"http://tw.myblog.yahoo.com/pegasus-tea/","X":null,"Y":null},{"Area":"溫羅汀","Name":"茉莉二手書店","Address":"台北市羅斯福路三段244巷10弄17號","Tel":"(02)2369-2780","OpeningHours":"Mon-Sun 12:00-22:00","URL":"http://www.mollie.com.tw","X":null,"Y":null},{"Area":"溫羅汀","Name":"波黑美亞咖啡食堂","Address":"台北市溫州街48巷2號","Tel":"(02)2368-1086","OpeningHours":"Mon-Sun 11:00-02:00","URL":"http://www.facebook.com/bohemecafe","X":null,"Y":null},{"Area":"萬華","Name":"台北堂摩那卡餅本舖","Address":"台北市艋舺大道52號","Tel":"(02)2336-2024","OpeningHours":"Mon-Fri 09:30-20:30\nSat 09:00 - 18:00                       ","URL":"http://www.tpmonaka.com.tw/","X":null,"Y":null},{"Area":"北投","Name":"春天酒店","Address":"台北市北投區幽雅路18號","Tel":"(02)2897-5555","OpeningHours":"需電話預約","URL":"http://www.springresort.com.tw/","X":null,"Y":null},{"Area":"萬華","Name":"DOOBIEST","Address":"台北市萬華區武昌街二段89號B1","Tel":"(02)2370-9171","OpeningHours":"Mon-Sun 13:00-22:30","URL":"http://doobiest.blogspot.com/","X":null,"Y":null},{"Area":"溫羅汀","Name":"紫藤廬","Address":"台北市新生南路三段16巷1號","Tel":"(02)2363-7375","OpeningHours":"Mon-Sat 10:00-23:00","URL":"http://www.wistariateahouse.com","X":null,"Y":null},{"Area":"萬華","Name":"湧漢男裝批發公司","Address":"台北市萬華區康定路362號","Tel":"(02)2304-1569","OpeningHours":"Mon-Sun 09:00-19:30","URL":null,"X":null,"Y":null},{"Area":"萬華","Name":"REMIX Flag shop","Address":"台北市萬華區昆明街96巷19號","Tel":"(02)2375-8092","OpeningHours":"Mon-Sun 14:00-22:00","URL":"http://www.remixtaipei.com/","X":null,"Y":null},{"Area":"北投","Name":"9 PLUS荷豐溫泉會館","Address":"台北市北投區溫泉路銀光巷1號","Tel":"(02)2897-9955","OpeningHours":"需電話預約","URL":"http://www.lotusspa.com.tw","X":null,"Y":null},{"Area":"萬華","Name":"西園2 9 服飾創作基地","Address":"台北市萬華區西園路二段9號","Tel":"(02)2336-7599","OpeningHours":"Mon-Fri 09:30-17:00                                                                                                                                                                                             Sat-Sun 10:00-19:00","URL":"http://fit29.pixnet.net/blog","X":null,"Y":null},{"Area":"溫羅汀","Name":"Okey Dokey Gallery& Cafe","Address":"台北市溫州街58巷2號1樓","Tel":"(02)2368-9899","OpeningHours":"Mon-Sun 11:00-23:00","URL":"http://www.facebook.com/#!/okeydokey.gallery.cafe","X":null,"Y":null},{"Area":"北投","Name":"漾館時尚溫泉飯店","Address":"台北市北投區溫泉路63號","Tel":"(02)2891-1118","OpeningHours":"需電話預約","URL":"http://www.aquabella.com.tw/","X":null,"Y":null},{"Area":"北投","Name":"卡通巴士","Address":"台北市北投區光明路118號2樓","Tel":"(02)2898-1979","OpeningHours":"Mon-Fri 11:00~22:00 \nSat10:00~22:00 \nSun10:00~18:00","URL":"http://tw.myblog.yahoo.com/cartoon_bus/profile","X":null,"Y":null},{"Area":"溫羅汀","Name":"水源劇場","Address":"台北市中正區羅斯福路四段92號10樓","Tel":"(02)2362-5221","OpeningHours":"需電話預約","URL":"http://www.culture.gov.tw/frontsite/outsource/venuesAction.do?method=doFindVenuesActivity&venuesId=36&subMenuId=null","X":null,"Y":null},{"Area":"萬華","Name":"美國工廠 總店","Address":"台北市萬華區武昌街2段116-3號","Tel":"(02)2388-1623","OpeningHours":"Mon-Fri 13:00-22:00\nSat 12:30-23:00 Sun12:30-22:00","URL":"http://www.usfactory1993.com/","X":null,"Y":null},{"Area":"北投","Name":"北投溫泉博物館","Address":"台北市北投區中山路2號 ","Tel":"(02)2893-9981","OpeningHours":"Tue-Sun 09:00-17:00(Mon off)  ","URL":"http://beitoumuseum.taipei.gov.tw/","X":null,"Y":null},{"Area":"北投","Name":"北投麗禧溫泉酒店","Address":"台北市北投區幽雅路30號?","Tel":"(02)2898-8888","OpeningHours":"需電話預約","URL":"http://www.gvrb.com.tw/","X":null,"Y":null},{"Area":"北投","Name":"少帥禪園","Address":"台北市北投區幽雅路34號","Tel":"(02)2893-5336","OpeningHours":"Mon-Sun 10:00-21:00","URL":"http://www.sgarden.com.tw/","X":null,"Y":null},{"Area":"萬華","Name":"小花園繡花鞋","Address":"台北市萬華區峨嵋街70號","Tel":"(02)2311-0045","OpeningHours":"Mon-Sun 12:30-18:00","URL":"http://tw.myblog.yahoo.com/little-garden","X":null,"Y":null},{"Area":"大稻埕","Name":"URS155|Cooking Together","Address":"臺北市迪化街一段155號","Tel":"02-2552-0349","OpeningHours":"Tue-Sun 11:00-19:00","URL":"https://www.facebook.com/cookingtogether155/","X":null,"Y":null},{"Area":"萬華","Name":"SCREAMING","Address":"台北市萬華區昆明街109號B1","Tel":"(02)2389-6936","OpeningHours":"Mon-Sun 15:00-21:00","URL":"http://www.screaming.com.tw/","X":null,"Y":null},{"Area":"萬華","Name":"西門紅樓文史工作室","Address":"台北市萬華區成都路10號","Tel":"(02)2371-8800","OpeningHours":"Tue-Sun 11:00-21:30                        Fri-Sat 11:00-22:00(Mon off )","URL":"http://www.redhouse.org.tw/Index_New.aspx","X":null,"Y":null},{"Area":"萬華","Name":"紅玫瑰手工旗袍","Address":"台北市萬華區萬大路463號1樓","Tel":"(02)-2309 4901","OpeningHours":"Mon-Sat 10:00-21:00                                                                                                                               Sun 11:00-17:00","URL":"http://www.facebook.com/pages/紅玫瑰手工旗袍/253325611385546","X":null,"Y":null},{"Area":"北投","Name":"北投倆人旅店","Address":"台北市北投區幽雅路11號","Tel":"(02)2897-3611","OpeningHours":"需電話預約","URL":"http://doubleone.hotel.com.tw/","X":null,"Y":null},{"Area":"北投","Name":"台灣技術劇場協會（新北投71園區）","Address":"台北市北投區開明街71號B101室??","Tel":"(02)2892-1709?","OpeningHours":"不對外開放","URL":"http://www.tatt.org.tw/index.asp","X":null,"Y":null},{"Area":"萬華","Name":"剝皮寮歷史街區","Address":"台北市萬華區廣州街與康定路口","Tel":"(02)2336-1704","OpeningHours":"Tue-Sun 09:00-17:00 (Mon off)","URL":"http://59.120.8.196/enable2007/modules/tinyd1/index.php?id=6","X":null,"Y":null}]