[
  {
    "area": "萬華",
    "name": "SKATEBOARDING",
    "address": "台北市萬華區峨嵋街103巷7號",
    "tel": "(02)2375-7609\n她都在店裡",
    "open_time": "Mon-Sun 13:00-22:00",
    "url": "http://www.skateboarding.com.tw/",
    "latitude": 25.043417,
    "longitude": 121.5078836
  },
  {
    "area": "北投",
    "name": "爐鍋咖啡",
    "address": "台北市北投區大度路三段296巷39號",
    "tel": "(02)2891-5990 ",
    "open_time": "Tue-Fri 15:00-22:00\nSat 15:00-23:00                                                  Sun 15:00-22:00(Mon off)",
    "url": "http://www.wretch.cc/blog/luguo",
    "latitude": 25.124283,
    "longitude": 121.466735
  },
  {
    "area": "萬華",
    "name": "continued",
    "address": "台北市萬華區武昌街二段85號之3",
    "tel": "(02)2375-8884",
    "open_time": "Mon-Fri 13:00-23:00                      Sat-Sun 12:00-23:00",
    "url": "http://www.continued.tw/",
    "latitude": 25.0453035,
    "longitude": 121.5048682
  },
  {
    "area": "萬華",
    "name": "好媽媽風味料理",
    "address": "台北市萬華區環河南路二段102號2樓",
    "tel": "0915-351-520",
    "open_time": "Tue-Sun 11:00-22:00",
    "url": null,
    "latitude": 25.0368895,
    "longitude": 121.4954552
  },
  {
    "area": "溫羅汀",
    "name": "晶晶複合式商店",
    "address": "台北市羅斯福路三段210巷8弄8號1樓",
    "tel": "(02)2364-2006",
    "open_time": "Mon-Sun 13:30-21:30",
    "url": "http://www.ginginbooks.com",
    "latitude": 25.018129,
    "longitude": 121.529176
  },
  {
    "area": "萬華",
    "name": "衣美服飾",
    "address": "台北市萬華區大理街45號",
    "tel": "(02)2304-5168",
    "open_time": "Mon-Sun 10:00-22:00",
    "url": null,
    "latitude": 25.034658,
    "longitude": 121.500693
  },
  {
    "area": "萬華",
    "name": "Brick's Burger",
    "address": "台北市萬華區漢口街二段53巷17號",
    "tel": "(02)2388-6669",
    "open_time": "Mon-Sun 13:00-22:00\nSat 12:00-23:00 Sun 12:00-22:00",
    "url": "http://zh-tw.facebook.com/pages/Bricks-Burger/108731375816601",
    "latitude": 25.046375,
    "longitude": 121.506471
  },
  {
    "area": "萬華",
    "name": "電影主題公園",
    "address": "台北市萬華區康定路19號",
    "tel": "(02)2312-3717",
    "open_time": "Mon-Sun 0:00-24:00",
    "url": "http://www.cinemapark.org.tw/",
    "latitude": 25.044722,
    "longitude": 121.503137
  },
  {
    "area": "大稻埕",
    "name": "Poète i",
    "address": "台北市民樂街68號2樓",
    "tel": "0927-830-601",
    "open_time": "需電話預約",
    "url": "https://www.facebook.com/pages/Po%C3%A8te-i/113122535457993",
    "latitude": 25.057777,
    "longitude": 121.510518
  },
  {
    "area": "溫羅汀",
    "name": "好窩咖啡",
    "address": "台北市溫州街74巷3弄5號",
    "tel": "(02)2367-8577",
    "open_time": "Tue-Sun 12:00-24:00",
    "url": null,
    "latitude": 25.019223,
    "longitude": 121.532196
  },
  {
    "area": "萬華",
    "name": "玉美人孕婦裝",
    "address": "台北市萬華區康定路271號1-2樓",
    "tel": "(02)8966-9762",
    "open_time": "Mon-Sun 10:00-21:00",
    "url": "http://www.ymr.com.tw/",
    "latitude": 25.034398,
    "longitude": 121.501266
  },
  {
    "area": "萬華",
    "name": "貳拾陸巷│Somebody Cafe",
    "address": "台北市萬華區西寧南路131號2樓",
    "tel": "(02)2311-2371",
    "open_time": "Mon-Sun 13:00~22:00",
    "url": "http://blog.yam.com/creative26",
    "latitude": 25.044168,
    "longitude": 121.506444
  },
  {
    "area": "萬華",
    "name": "九段工坊",
    "address": "台北市萬華區和平西路三段102號2樓",
    "tel": "(02)2302-5841",
    "open_time": "Mon-Sat 11:00-20:00\nSun 12:00-18:00",
    "url": "http://tw.myblog.yahoo.com/aqtyxsbubbs/",
    "latitude": 25.0350859,
    "longitude": 121.500779
  },
  {
    "area": "溫羅汀",
    "name": "Kick cafe",
    "address": "台北市羅斯福路三段316巷16號",
    "tel": "(02)2368-0708",
    "open_time": "Mon-Sun 11:30-22:00",
    "url": "http://www.wretch.cc/blog/kickcafe",
    "latitude": 25.015506,
    "longitude": 121.532336
  },
  {
    "area": "北投",
    "name": "北投文物館",
    "address": "台北市北投區幽雅路32號",
    "tel": "(02)2891-2318",
    "open_time": "Tue-Sun 10:00-17:30(Mon off) ",
    "url": "http://www.folkartsm.org.tw/",
    "latitude": 25.1381804,
    "longitude": 121.5144826
  },
  {
    "area": "溫羅汀",
    "name": "女僕之心桌遊吧",
    "address": "台北市羅斯福路四段52巷2號B1",
    "tel": "(02)2368-4455",
    "open_time": "Mon-Thu 17:00-22:00\nFri-Sun 13:30-22:30",
    "url": "http://www.facebook.com/maidsheart",
    "latitude": 25.014853,
    "longitude": 121.533812
  },
  {
    "area": "萬華",
    "name": "也門町精品咖啡",
    "address": "台北市萬華區康定路19號",
    "tel": "(02)2361-6138",
    "open_time": "Tue-Sat 11:30-21:30 (Mon off)",
    "url": "http://tw.myblog.yahoo.com/cafe-51688/",
    "latitude": 25.044722,
    "longitude": 121.503137
  },
  {
    "area": "萬華",
    "name": "長壽號",
    "address": "臺北市南寧路56號",
    "tel": "(02)2308-7987",
    "open_time": "Mon-Sun 08:00-19:00",
    "url": null,
    "latitude": 25.035559,
    "longitude": 121.504132
  },
  {
    "area": "萬華",
    "name": "糖?文化園區",
    "address": "台北市萬華區大理街132-10號",
    "tel": "(02)-2306-7975",
    "open_time": "Tue-Sun 10:00-17:00 (Mon off)",
    "url": "http://www.ttbca.org.tw/index1.htm",
    "latitude": 25.0332028,
    "longitude": 121.4950649
  },
  {
    "area": "萬華",
    "name": "Keven紋身彩繪藝術工作室",
    "address": "台北市萬華區西寧南路129號(第七櫃)",
    "tel": "(02)2389-8018",
    "open_time": "Mon-Fri 12:00-22:30                       Sat-Sun 11:00-23:00",
    "url": "http://www.tattoo.idv.tw/",
    "latitude": 25.044262,
    "longitude": 121.50649
  },
  {
    "area": "萬華",
    "name": "So Free Pizza",
    "address": "台北市萬華區西寧南路50巷1號",
    "tel": "(02)2314-6225",
    "open_time": "Sun-Sat 11:30~21:00",
    "url": "http://www.wretch.cc/blog/sofreepizza",
    "latitude": 25.044367,
    "longitude": 121.5060389
  },
  {
    "area": "北投",
    "name": "三古手感坊",
    "address": "台北市北投區泉源路 11號1樓",
    "tel": "(02)2893-5818",
    "open_time": "Tue-Sun 14:00-21:30 ",
    "url": null,
    "latitude": 25.1375969,
    "longitude": 121.504036
  },
  {
    "area": "溫羅汀",
    "name": "ㄇㄞˋ點子",
    "address": "台北市新生南路三段84-6號3樓",
    "tel": "(02)2363-1371",
    "open_time": null,
    "url": "http://www.mydesy.com",
    "latitude": 25.018909,
    "longitude": 121.533385
  },
  {
    "area": "大稻埕",
    "name": "127公店（URS127）",
    "address": "臺北市迪化街一段127號",
    "tel": "0937-396-040",
    "open_time": "Tue-Sun 10:00-17:00",
    "url": "http://tku127.blogspot.tw/",
    "latitude": 25.0575139,
    "longitude": 121.509841
  },
  {
    "area": "北投",
    "name": "高馡咖啡",
    "address": "台北市北投區泉源路12號3樓",
    "tel": "(02)2893-7543",
    "open_time": "Tue-Wed 11:30-18:30\nThu-Sat 11:30-21:30\nSun 11:30-18:30(Mon off)",
    "url": "http://www.gaofei.tw/",
    "latitude": 25.137063,
    "longitude": 121.504345
  },
  {
    "area": "北投",
    "name": "臺北市政府原住民族事務委員會凱達格蘭文化館",
    "address": "台北市北投區中山路3-1號",
    "tel": "(02)2898-6500",
    "open_time": " Tue-Sun 09:00 - 17:00(Mon off)",
    "url": "http://www.ketagalan.taipei.gov.tw/",
    "latitude": 25.137067,
    "longitude": 121.5057882
  },
  {
    "area": "大稻埕",
    "name": "小藝埕",
    "address": "台北市迪化街一段32巷1號",
    "tel": "(02)2552-1367",
    "open_time": "Mon-Sun 09:00-19:00",
    "url": "http://www.artyard.tw/",
    "latitude": 25.0546325,
    "longitude": 121.509949
  },
  {
    "area": "大稻埕",
    "name": "王有記茶行",
    "address": "台北市重慶北路2段64巷26號",
    "tel": "(02)2555-9164",
    "open_time": "Mon-Sat 09:00-20:30",
    "url": "http://www.wangtea.com.tw/",
    "latitude": 25.05567,
    "longitude": 121.513083
  },
  {
    "area": "大稻埕",
    "name": "思劇場",
    "address": "台北市迪化街一段32巷1號",
    "tel": "(02)2552-1321",
    "open_time": "Mon-Sun 09:00-19:00",
    "url": "http://www.artyard.tw/",
    "latitude": 25.0546325,
    "longitude": 121.509949
  },
  {
    "area": "萬華",
    "name": "西門橙舍",
    "address": "台北市萬華區漢口街二段41號",
    "tel": "(02)2559-0202",
    "open_time": "需電話預約",
    "url": "http://www.taipeicityhostel.com/",
    "latitude": 25.045847,
    "longitude": 121.507197
  },
  {
    "area": "溫羅汀",
    "name": "Here café",
    "address": "台北市羅斯福路五段170巷37號",
    "tel": "(02)2930-8983",
    "open_time": "Tue-Sun 9:00-22:00",
    "url": null,
    "latitude": 25.004663,
    "longitude": 121.536645
  },
  {
    "area": "溫羅汀",
    "name": "Stone Dream",
    "address": "台北市溫州街74巷8號",
    "tel": "(02)2368-9073",
    "open_time": "Tue-Sun  13:30-20:30",
    "url": "http://www.facebook.com/StoneDream",
    "latitude": 25.0197875,
    "longitude": 121.5320644
  },
  {
    "area": "萬華",
    "name": "華記手畫佛神像",
    "address": "台北市萬華區西園路一段103號",
    "tel": "(02)2302-1600",
    "open_time": "Mon-Sat 10:00-22:00\nSun 10:00-18:00",
    "url": null,
    "latitude": 25.0382889,
    "longitude": 121.499861
  },
  {
    "area": "溫羅汀",
    "name": "滴咖啡",
    "address": "台北市新生南路三段76巷1號",
    "tel": "(02)2368-4222",
    "open_time": "Sun-Thu 10:30-21:00\nFri-Sat 10:30-00:00",
    "url": "http://www.dcoffee.net",
    "latitude": 25.019146,
    "longitude": 121.533497
  },
  {
    "area": "北投",
    "name": "台北市溫泉發展協會",
    "address": "台北市北投區光明路224號",
    "tel": "(02)2895-5418",
    "open_time": "不對外開放",
    "url": "http://www.taipeisprings.org.tw/",
    "latitude": 25.1361892,
    "longitude": 121.5050657
  },
  {
    "area": "溫羅汀",
    "name": "結構群",
    "address": "台北市新生南路三段98巷1號1樓",
    "tel": "(02)2362-8951",
    "open_time": "Mon-Sun  11:30-22:00",
    "url": "http://www.facebook.com/pages/結構群台大店/279369484370",
    "latitude": 25.017113,
    "longitude": 121.53297
  },
  {
    "area": "溫羅汀",
    "name": "Infinity Café",
    "address": "台北市羅斯福路三段244巷14號",
    "tel": "(02)2365-2212",
    "open_time": "Mon-Sun 10:00-21:00",
    "url": "http://www.facebook.com/infinitycafe8",
    "latitude": 25.0165835,
    "longitude": 121.5306103
  },
  {
    "area": "北投",
    "name": "水都溫泉會館",
    "address": "台北市北投區光明路283號",
    "tel": "(02)2897-9060",
    "open_time": "需電話預約",
    "url": "http://www.spaspringresort.com.tw/home/",
    "latitude": 25.13692,
    "longitude": 121.510974
  },
  {
    "area": "溫羅汀",
    "name": "莎慕瓦典藏茶館",
    "address": "台北市新生南路三段76巷5-1號",
    "tel": "(02)8369-5072",
    "open_time": "Mon-Sun13:00-23:00",
    "url": "http://www.facebook.com/#!/pages/%E8%8E%8E%E6%85%95%E7%93%A6%E5%85%B8%E8%97%8F%E8%8C%B6%E9%A4%A8/150614704972516",
    "latitude": 25.0191429,
    "longitude": 121.533272
  },
  {
    "area": "萬華",
    "name": "麵包廚房",
    "address": "台北市萬華區峨嵋街66號",
    "tel": "(02)2311-9866",
    "open_time": "Tue-Sat 11:00-21:30",
    "url": "http://www.facebook.com/pages/麵包廚房/283672198330836",
    "latitude": 25.043417,
    "longitude": 121.5078836
  },
  {
    "area": "溫羅汀",
    "name": "Rebirth Café&Restaurant",
    "address": "台北市新生南路3段86巷19號",
    "tel": "(02)2368-9866",
    "open_time": "Mon-Sun 12:00-24:00",
    "url": "http://www.facebook.com/Rebirth.james",
    "latitude": 25.018799,
    "longitude": 121.532253
  },
  {
    "area": "溫羅汀",
    "name": "咖啡逗留 Café Séjour",
    "address": "台北市羅斯福路3段283巷38號",
    "tel": "(02)2368-4884",
    "open_time": "Wed-Sun 11:00-22:00",
    "url": "http://www.facebook.com/pages/caffe-4mano/383046225295#!/CafeSejour",
    "latitude": 25.01961,
    "longitude": 121.531821
  },
  {
    "area": "萬華",
    "name": "歐芬內衣大理店",
    "address": "台北市萬華區大理街42巷3號",
    "tel": "(02)2302-8632",
    "open_time": "Mon-Sat 10:00-21:00",
    "url": "http://www.facebook.com/eurofane",
    "latitude": 25.034205,
    "longitude": 121.500308
  },
  {
    "area": "萬華",
    "name": "西門徒步區街區發展促進會",
    "address": "台北市萬華區漢中街135號11樓-1",
    "tel": "(02)-2375-4205",
    "open_time": "不對外開放",
    "url": "http://www.ximen.com.tw/",
    "latitude": 25.041786,
    "longitude": 121.507426
  },
  {
    "area": "北投",
    "name": "財團法人台北市北投文化基金會",
    "address": "台北市北投區中央南路一段45號之1",
    "tel": "(02)2891-7453",
    "open_time": "不對外開放",
    "url": "http://www.ptcf.org.tw/",
    "latitude": 25.132164,
    "longitude": 121.501448
  },
  {
    "area": "溫羅汀",
    "name": "永樂座",
    "address": "台北市羅斯福路三段244巷14號2樓",
    "tel": "(02)2368-6808",
    "open_time": "Mon-Sun 13:00-22:00",
    "url": "http://www.facebook.com/eirakuza",
    "latitude": 25.0165835,
    "longitude": 121.5306103
  },
  {
    "area": "溫羅汀",
    "name": "愛之船拉拉時尚概念館",
    "address": "台北市羅斯福路三段240巷11號",
    "tel": "(02)2364-8757",
    "open_time": "Tue-Sun  14:00-22:00",
    "url": "http://tw.myblog.yahoo.com/LoVEBOAT-Love1314/",
    "latitude": 25.0177989,
    "longitude": 121.529931
  },
  {
    "area": "溫羅汀",
    "name": "So Free Pizza & Cheese",
    "address": "台北市羅斯福路三段283巷28號1樓",
    "tel": "(02)2364-3351",
    "open_time": "Mon-Sun 11:30-21:00",
    "url": "http://www.wretch.cc/blog/sofreepizza",
    "latitude": 25.018859,
    "longitude": 121.531729
  },
  {
    "area": "溫羅汀",
    "name": "色瞇瞇海報龍",
    "address": "台北市汀洲路三段168號2樓",
    "tel": "(02)2365-3076",
    "open_time": "Mon-Sat 13:00-22:00",
    "url": "http://www.gongguan.com.tw",
    "latitude": 25.0153586,
    "longitude": 121.5310231
  },
  {
    "area": "北投",
    "name": "荷蔓咖啡坊",
    "address": "台北市北投區泉源路28-3號",
    "tel": "(02)2893-5770",
    "open_time": "Sun-Wed 10:00-20:30                                       Fri-Sat 10:00-22:00",
    "url": "http://www.facebook.com/hermacafe",
    "latitude": 25.13955,
    "longitude": 121.506363
  },
  {
    "area": "溫羅汀",
    "name": "人性空間",
    "address": "台北市新生南路三段60巷7號",
    "tel": "(02)2362-3529",
    "open_time": "Mon-Sun 11:00-23:00",
    "url": null,
    "latitude": 25.0202759,
    "longitude": 121.533325
  },
  {
    "area": "萬華",
    "name": "台北多元藝術空間青少年發展促進會",
    "address": "台北市萬華區康定路19號",
    "tel": "(02)2388-8792",
    "open_time": "不對外開放",
    "url": "http://www.tya175.org/",
    "latitude": 25.044722,
    "longitude": 121.503137
  },
  {
    "area": "溫羅汀",
    "name": "唐山書店",
    "address": "台北市大安區羅斯福路三段333巷9號B1",
    "tel": "02-2363-3072",
    "open_time": "Mon-Fri 9:00-22:00\nSat-Sun 10:00-22:00",
    "url": "http://blog.yam.com/tsbooks",
    "latitude": 25.0174686,
    "longitude": 121.5327698
  },
  {
    "area": "萬華",
    "name": "富山蒸籠",
    "address": "台北市萬華區桂林路224巷1號",
    "tel": "(02)2306-0066",
    "open_time": "Mon-Sun 07:30-22:30",
    "url": "http://tw.myblog.yahoo.com/jw!EuYavoqRGRm57wLOiOokCIod5g--",
    "latitude": 25.038599,
    "longitude": 121.496381
  },
  {
    "area": "北投",
    "name": "龍邦僑園會館",
    "address": "台北市北投區泉源路25號",
    "tel": "(02)2893-9922 ",
    "open_time": "需電話預約",
    "url": "http://cy.longbon.com.tw/",
    "latitude": 25.139853,
    "longitude": 121.506139
  },
  {
    "area": "萬華",
    "name": "Choir 快樂美式餐廳",
    "address": "台北市萬華區武昌街二段85-2號",
    "tel": "(02)2370-7400",
    "open_time": "Mon-Sun 11:30-02:00",
    "url": "http://www.facebook.com/pages/Choir-Cafe/263664887006653",
    "latitude": 25.0453227,
    "longitude": 121.5047839
  },
  {
    "area": "大稻埕",
    "name": "民藝埕",
    "address": "台北市迪化街一段67號",
    "tel": "(02)2552-1367",
    "open_time": "Mon-Sun 09:00-19:00",
    "url": "http://www.artyard.tw/",
    "latitude": 25.05593,
    "longitude": 121.510037
  },
  {
    "area": "北投",
    "name": "琉金穗月",
    "address": "台北市北投路一段7號3樓",
    "tel": "(02)2898-4142",
    "open_time": "需電話預約",
    "url": "http://www.golden-moon.com.tw/",
    "latitude": 25.121836,
    "longitude": 121.501851
  },
  {
    "area": "大稻埕",
    "name": "Nostalgic Future : 意思意思",
    "address": "台北市迪化街一段14巷14號",
    "tel": "0932-209-034",
    "open_time": "Fri-Mon 14:00-21:00",
    "url": "http://www.nostalgicfuture.com",
    "latitude": 25.0541642,
    "longitude": 121.5100634
  },
  {
    "area": "萬華",
    "name": "阿布豆",
    "address": "台北市萬華區萬大路285號1樓",
    "tel": "(02)2309-4926",
    "open_time": "Mon-Fri 09:30-20:30                               Wed 09:30-18:00                                     Sat-Sun 09:30-17:00",
    "url": "http://www.sweethause.com.tw/",
    "latitude": 25.025179,
    "longitude": 121.500625
  },
  {
    "area": "大稻埕",
    "name": "台客藍",
    "address": "台北市迪化街一段32巷1號",
    "tel": "(02)2552-1367",
    "open_time": "Mon-Sun 09:00-19:00",
    "url": "http://www.artyard.tw/",
    "latitude": 25.0546325,
    "longitude": 121.509949
  },
  {
    "area": "萬華",
    "name": "西門町花莉特效化妝",
    "address": "台北市萬華區漢口街二段50號",
    "tel": "(02)2381-3220",
    "open_time": "Mon-Sun 13:00-21:00",
    "url": "http://www.bennye.com.tw/bennyetaiwan/",
    "latitude": 25.04553,
    "longitude": 121.507006
  },
  {
    "area": "萬華",
    "name": "阿猜嬤甜湯",
    "address": "台北市萬華區華西街3號",
    "tel": "(02)2361-8697",
    "open_time": "Mon-Sun 15:00-22:00",
    "url": null,
    "latitude": 25.0398824,
    "longitude": 121.4985335
  },
  {
    "area": "萬華",
    "name": "妙佛園佛具",
    "address": "台北市萬華區西園路一段162號",
    "tel": "(02)2302-9072",
    "open_time": "Mon-Sun 09:30-22:30",
    "url": "http://tw.myblog.yahoo.com/mfy2260/",
    "latitude": 25.036922,
    "longitude": 121.499342
  },
  {
    "area": "大稻埕",
    "name": "十字軒糕餅鋪",
    "address": "台北市延平北路二段68號",
    "tel": "(02)2558-0989",
    "open_time": "Mon-Sun 08:00-22:00",
    "url": "http://www.ten-cake.com.tw/",
    "latitude": 25.055692,
    "longitude": 121.51155
  },
  {
    "area": "溫羅汀",
    "name": "H*ours Café",
    "address": "台北市羅斯福路三段210巷8弄12號1樓",
    "tel": "(02)2364-2742",
    "open_time": "Mon-Sun 14:00-23:00",
    "url": "http://www.facebook.com/#!/hours.cafe",
    "latitude": 25.0180639,
    "longitude": 121.529291
  },
  {
    "area": "萬華",
    "name": "LEAF HAIR DESIGN",
    "address": "台北市萬華區昆明街96巷8號",
    "tel": "(02)2388-8088",
    "open_time": "Tue-Sun 13:00-21:00",
    "url": "http://leafxogo7.pixnet.net/blog",
    "latitude": 25.044777,
    "longitude": 121.504567
  },
  {
    "area": "北投",
    "name": "果實X. PLACE",
    "address": "台北市北投區溫泉路110-1號1樓",
    "tel": "(02)2893-9325",
    "open_time": "Fri-Sun11:30-21:00",
    "url": "http://www.facebook.com/XplaceFB",
    "latitude": 25.136199,
    "longitude": 121.510919
  },
  {
    "area": "北投",
    "name": "I'M HERE",
    "address": "台北市北投區承德路七段401巷989弄79號",
    "tel": "(02)2898-6607",
    "open_time": "Sat-Sun 07:00-22:00                                       Tue-Fri 13:00-22-00(Mon off)",
    "url": "http://zh-tw.facebook.com/imhere.coffee?sk=info",
    "latitude": 25.115221,
    "longitude": 121.483926
  },
  {
    "area": "北投",
    "name": "布查花園法式料理(陽明店)",
    "address": "台北市北投區立農街二段155號",
    "tel": "(02)2820-9920 ",
    "open_time": "Mon-Sun 11:30-14:00, 17:00-21:00",
    "url": "http://www.escargot.htm.tw/",
    "latitude": 25.1196737,
    "longitude": 121.5133204
  },
  {
    "area": "大稻埕",
    "name": "林柳新偶戲館",
    "address": "台北市西寧北路79號",
    "tel": "(02)2556-8909",
    "open_time": "Tue-Sun 10:00-17:00",
    "url": "http://www.taipeipuppet.com/",
    "latitude": 25.0557,
    "longitude": 121.509084
  },
  {
    "area": "大稻埕",
    "name": "秦境",
    "address": "台北市民樂街153號",
    "tel": "0921-067-050",
    "open_time": "Sun-Fri 12:00-20:30\nSat 12:00-18:00 (Tue off) ",
    "url": null,
    "latitude": 25.058573,
    "longitude": 121.510725
  },
  {
    "area": "大稻埕",
    "name": "台北霞海城隍廟",
    "address": "台北市大同區迪化街一段61號",
    "tel": "(02)2558-0346",
    "open_time": "Mon-Sun 06:16-19:47",
    "url": "http://www.tpecitygod.org/",
    "latitude": 25.0556001,
    "longitude": 121.510168
  },
  {
    "area": "萬華",
    "name": "Crystal Rose 水晶玫瑰緞帶專賣店",
    "address": "台北市萬華區艋舺大道188號",
    "tel": "(02)2302-3968",
    "open_time": "Mon-Fri 11:30-21:00\nSat-Sun 12:30-17:30                    ",
    "url": "http://www.cr-ribbon.com/",
    "latitude": 25.0330788,
    "longitude": 121.4974062
  },
  {
    "area": "萬華",
    "name": "天順蔘藥青草行",
    "address": "台北市萬華區廣州街199號",
    "tel": "(02)2336-3991",
    "open_time": "Mon-Sat 09:00-22:00",
    "url": null,
    "latitude": 25.0367334,
    "longitude": 121.4982556
  },
  {
    "area": "溫羅汀",
    "name": "古今書廊 二手書店",
    "address": "台北市羅斯福路三段244巷17‧23號",
    "tel": "(02)2367-1797 (02)2363-6358",
    "open_time": "Mon-Sun  10:30-22:00",
    "url": "http://pnpbook.blogspot.tw",
    "latitude": 25.091075,
    "longitude": 121.5598345
  },
  {
    "area": "北投",
    "name": "北藝風概念店",
    "address": "台北市北投區學園路1號(國立臺北藝術大學內)",
    "tel": "(02)2893-8130",
    "open_time": "Sat 12:00-20:00  Sun 12:00-18:00",
    "url": "http://www.kdarts.org.tw/",
    "latitude": 25.1324572,
    "longitude": 121.4693489
  },
  {
    "area": "北投",
    "name": "鳳甲美術館",
    "address": "台北市北投區大業路166號11樓",
    "tel": "(02)2894-2272",
    "open_time": "Tue-Sun 10:30-17:30(Mon off)",
    "url": "http://www.hong-gah.org.tw/",
    "latitude": 25.1251325,
    "longitude": 121.499086
  },
  {
    "area": "萬華",
    "name": "龍山佛具店",
    "address": "台北市萬華區西園路一段142號、144號",
    "tel": "(02)2306-6970",
    "open_time": "Mon-Sun 08:00-22:00",
    "url": "http://shop860.ecnow.tw/index.php?gOo=shop.dwt",
    "latitude": 25.0377479,
    "longitude": 121.499469
  },
  {
    "area": "北投",
    "name": "北投公民會館",
    "address": "台北市北投區中山路5-7號",
    "tel": "(02)2897-4760",
    "open_time": "Mon-Sun09：00-12：00,14：00-17：00\n(Mon off)",
    "url": "http://www.btdo.taipei.gov.tw/np.asp?ctNode=22789&mp=124081",
    "latitude": 25.1379314,
    "longitude": 121.510097
  },
  {
    "area": "大稻埕",
    "name": "印花樂",
    "address": "台北市迪化街一段32巷1號",
    "tel": "(02)2552-1321",
    "open_time": "Mon-Sun 09:00-19:00",
    "url": "http://www.artyard.tw/",
    "latitude": 25.0546325,
    "longitude": 121.509949
  },
  {
    "area": "溫羅汀",
    "name": "泡麵達人館",
    "address": "台北市羅斯福路三段283巷19弄2號1樓",
    "tel": "(02)3365-2375\n(02)2369-0604",
    "open_time": "Tue-Sun 11:00-14:00\n                16:30-21:30",
    "url": null,
    "latitude": 25.019463,
    "longitude": 121.531624
  },
  {
    "area": "北投",
    "name": "琉園水晶博物館",
    "address": "台北市北投區中央北路四段515巷16號",
    "tel": "(02)2895-8861",
    "open_time": "Tue-Sun 09:00-17:00(Mon off)   ",
    "url": "http://www.tittotmuseum.com/",
    "latitude": 25.12726,
    "longitude": 121.468942
  },
  {
    "area": "溫羅汀",
    "name": "安卓藝術新生16概念場所",
    "address": "台北市新生南路三段16-1號",
    "tel": "(02)2363-1011",
    "open_time": "Tue-Sun 10:00-19:00 (Mon off)",
    "url": "http://art-msac.com/msac2012",
    "latitude": 25.024457,
    "longitude": 121.53445
  },
  {
    "area": "萬華",
    "name": "老濟安青草店",
    "address": "台北市萬華區西昌街84號",
    "tel": "(02)2314-1878",
    "open_time": "Mon-Sat 09:00-22:00",
    "url": "http://www.facebook.com/pages/老濟安青草店/193850374018088",
    "latitude": 25.041197,
    "longitude": 121.500692
  },
  {
    "area": "溫羅汀",
    "name": "The Wall",
    "address": "台北市文山區羅斯福路四段200號",
    "tel": "(02)2930-0162",
    "open_time": "Tue-Sat  15:00-23:00",
    "url": "http://www.thewall.com.tw",
    "latitude": 25.0107151,
    "longitude": 121.5370146
  },
  {
    "area": "溫羅汀",
    "name": "寶藏巖",
    "address": "台北市汀州路三段230巷14弄2號",
    "tel": "(02)2364-5313",
    "open_time": "Tue-Sun 11:00-22:00 (Mon off)",
    "url": "http://www.artistvillage.org/thav",
    "latitude": 25.0202345,
    "longitude": 121.5254259
  },
  {
    "area": "溫羅汀",
    "name": "艾客米桌上遊戲世界",
    "address": "台北市羅斯福路三段273號2樓",
    "tel": "(02)2369-1991",
    "open_time": "Mon-Sun 15:30-21:30",
    "url": "http://www.akmigames.com",
    "latitude": 25.018463,
    "longitude": 121.530746
  },
  {
    "area": "萬華",
    "name": "太和餅舖",
    "address": "台北市萬華區康定路300號",
    "tel": "(02)2306-9629",
    "open_time": "Mon-Sun 08:00-22:30",
    "url": "http://www.facebook.com/taiho300",
    "latitude": 25.0363089,
    "longitude": 121.501295
  },
  {
    "area": "萬華",
    "name": "MANIA 魅尼亞",
    "address": "台北市萬華區昆明街96巷12號",
    "tel": "(02)2375-7995",
    "open_time": "Mon-Fri 14:00-22:00                       Sat-Sun 14:00-22:30",
    "url": "http://blog.maniacrew.com/",
    "latitude": 25.0447929,
    "longitude": 121.5044296
  },
  {
    "area": "萬華",
    "name": "西門紅樓",
    "address": "台北市萬華區成都路10號",
    "tel": "(02)2311-9380",
    "open_time": "Tue-Sun 11:00-21:30 (Mon off)",
    "url": "http://www.redhouse.org.tw/Index_New.aspx",
    "latitude": 25.041943,
    "longitude": 121.506638
  },
  {
    "area": "萬華",
    "name": "Story",
    "address": "台北市萬華區昆明街96巷8-1號",
    "tel": "(02)2375-1728",
    "open_time": "Mon-Sun 14:00-22:00",
    "url": "http://www.facebook.com/STORY2008",
    "latitude": 25.044777,
    "longitude": 121.504567
  },
  {
    "area": "北投",
    "name": "阿嬌的店",
    "address": "台北市北投區光明路220號4樓304室",
    "tel": "(02)2892-3613",
    "open_time": "需電話預約",
    "url": "http://www.aj-house.com/",
    "latitude": 25.136237,
    "longitude": 121.50451
  },
  {
    "area": "萬華",
    "name": "萬安青草店",
    "address": "台北市萬華區西昌街224巷7號",
    "tel": "(02)2302-4290",
    "open_time": "Mon-Sat 08:00-22:00",
    "url": "http://www.facebook.com/pages/萬安青草店/123289961037900",
    "latitude": 25.036947,
    "longitude": 121.500411
  },
  {
    "area": "大稻埕",
    "name": "大稻埕戲苑",
    "address": "台北市迪化街一段21號8-9樓",
    "tel": "(02)2556-9101",
    "open_time": "Tue-Sat 09:00-21:00\nSun 09:00-18:00",
    "url": "http://www.wretch.cc/blog/dadaochen",
    "latitude": 25.054812,
    "longitude": 121.510334
  },
  {
    "area": "北投",
    "name": "DAISY DAY ",
    "address": "台北市北投區中正街69號",
    "tel": "(02)2897-0017",
    "open_time": "Mon-Sun 11:00-21:00",
    "url": "https://www.facebook.com/DaisyDay.tw",
    "latitude": 25.13227,
    "longitude": 121.499951
  },
  {
    "area": "萬華",
    "name": "樂舞戲劇舞蹈服裝",
    "address": "台北市萬華區漢中街160號",
    "tel": "(02)2382-2421",
    "open_time": "Mon-Sat 09:00-20:00",
    "url": "http://www.yuewu.com.tw/html/",
    "latitude": 25.0412529,
    "longitude": 121.50661
  },
  {
    "area": "萬華",
    "name": "in89豪華數位影城",
    "address": "台北市武昌街二段89號",
    "tel": "(02)-2331-5077",
    "open_time": "Mon-Sun 09:00-02:00",
    "url": "http://www.in89.com.tw",
    "latitude": 25.0454595,
    "longitude": 121.5039696
  },
  {
    "area": "溫羅汀",
    "name": "Prefer Market",
    "address": "台北市溫州街82號",
    "tel": "(02)2175-3201",
    "open_time": "Mon-Sun 12:00-22:00",
    "url": null,
    "latitude": 25.0190909,
    "longitude": 121.532742
  },
  {
    "area": "萬華",
    "name": "二和珍傳統糕餅舖",
    "address": "台北市萬華區康定路308號",
    "tel": "(02)2306-1234",
    "open_time": "Mon-Sun 08:00-22:00",
    "url": null,
    "latitude": 25.036058,
    "longitude": 121.501214
  },
  {
    "area": "萬華",
    "name": "老明玉香舖",
    "address": "台北市貴陽街2段155號",
    "tel": "(02)2381-5569",
    "open_time": "Mon-Sun 08:00-22:30",
    "url": null,
    "latitude": 25.04029,
    "longitude": 121.500831
  },
  {
    "area": "溫羅汀",
    "name": "書林書店",
    "address": "台北市新生南路三段88號2樓之5",
    "tel": "(02)2365-8617",
    "open_time": "Mon-Fri 09:00-21:00 \nSat-Sun 11:00-19:00",
    "url": "http://www.bookman.com.tw",
    "latitude": 25.0183213,
    "longitude": 121.5333575
  },
  {
    "area": "北投",
    "name": "牙口咖啡",
    "address": "台北市北投區大興街9巷45號1樓",
    "tel": "(02)2896-4048",
    "open_time": "Mon-Sun 11:30-21:00",
    "url": null,
    "latitude": 25.130903,
    "longitude": 121.497161
  },
  {
    "area": "溫羅汀",
    "name": "caffe' 4mano",
    "address": "台北市羅斯福路三段284巷9號",
    "tel": "(02)2365-3089",
    "open_time": "Mon-Sun 12:00-22:30",
    "url": "http://www.facebook.com/pages/caffe-4mano/383046225295",
    "latitude": 25.016145,
    "longitude": 121.531758
  },
  {
    "area": "溫羅汀",
    "name": "i prefer 公館薰衣草店",
    "address": "台北市羅斯福路四段52巷10號",
    "tel": "(02)2793-4889",
    "open_time": "Mon-Sun 12:00-22:00",
    "url": "http://www.prefer.com.tw",
    "latitude": 25.014692,
    "longitude": 121.533653
  },
  {
    "area": "大稻埕",
    "name": "角斯‧角斯",
    "address": "台北市民樂街4號2樓",
    "tel": "(02)2558-6408 ",
    "open_time": "不對外開放",
    "url": "https://www.facebook.com/creatchaos",
    "latitude": 25.0557089,
    "longitude": 121.510795
  },
  {
    "area": "大稻埕",
    "name": "爐鍋咖啡",
    "address": "台北市迪化街一段32巷1號",
    "tel": "(02)2552-1321",
    "open_time": "Mon-Sun 09:00-19:00",
    "url": "http://www.artyard.tw/",
    "latitude": 25.0546325,
    "longitude": 121.509949
  },
  {
    "area": "溫羅汀",
    "name": "回家咖啡",
    "address": "台北市羅斯福路三段283巷21弄6號",
    "tel": "(02)2364-9108",
    "open_time": "Mon-Sat 11:00-21:00",
    "url": "http://www.backhome.com.tw/cafe.html",
    "latitude": 25.019708,
    "longitude": 121.531502
  },
  {
    "area": "大稻埕",
    "name": "天馬茶房",
    "address": "台北市南京西路189號3F",
    "tel": "(02)2555-8508",
    "open_time": "需電話預約",
    "url": "http://tw.myblog.yahoo.com/pegasus-tea/",
    "latitude": 25.054023,
    "longitude": 121.51209
  },
  {
    "area": "溫羅汀",
    "name": "茉莉二手書店",
    "address": "台北市羅斯福路三段244巷10弄17號",
    "tel": "(02)2369-2780",
    "open_time": "Mon-Sun 12:00-22:00",
    "url": "http://www.mollie.com.tw",
    "latitude": 25.016188,
    "longitude": 121.531452
  },
  {
    "area": "溫羅汀",
    "name": "波黑美亞咖啡食堂",
    "address": "台北市溫州街48巷2號",
    "tel": "(02)2368-1086",
    "open_time": "Mon-Sun 11:00-02:00",
    "url": "http://www.facebook.com/bohemecafe",
    "latitude": 25.021359,
    "longitude": 121.532965
  },
  {
    "area": "萬華",
    "name": "台北堂摩那卡餅本舖",
    "address": "台北市艋舺大道52號",
    "tel": "(02)2336-2024",
    "open_time": "Mon-Fri 09:30-20:30\nSat 09:00 - 18:00                       ",
    "url": "http://www.tpmonaka.com.tw/",
    "latitude": 25.0332766,
    "longitude": 121.5039803
  },
  {
    "area": "北投",
    "name": "春天酒店",
    "address": "台北市北投區幽雅路18號",
    "tel": "(02)2897-5555",
    "open_time": "需電話預約",
    "url": "http://www.springresort.com.tw/",
    "latitude": 25.137637,
    "longitude": 121.513582
  },
  {
    "area": "萬華",
    "name": "DOOBIEST",
    "address": "台北市萬華區武昌街二段89號B1",
    "tel": "(02)2370-9171",
    "open_time": "Mon-Sun 13:00-22:30",
    "url": "http://doobiest.blogspot.com/",
    "latitude": 25.0454595,
    "longitude": 121.5039696
  },
  {
    "area": "溫羅汀",
    "name": "紫藤廬",
    "address": "台北市新生南路三段16巷1號",
    "tel": "(02)2363-7375",
    "open_time": "Mon-Sat 10:00-23:00",
    "url": "http://www.wistariateahouse.com",
    "latitude": 25.02462,
    "longitude": 121.534306
  },
  {
    "area": "萬華",
    "name": "湧漢男裝批發公司",
    "address": "台北市萬華區康定路362號",
    "tel": "(02)2304-1569",
    "open_time": "Mon-Sun 09:00-19:30",
    "url": null,
    "latitude": 25.034349,
    "longitude": 121.500942
  },
  {
    "area": "萬華",
    "name": "REMIX Flag shop",
    "address": "台北市萬華區昆明街96巷19號",
    "tel": "(02)2375-8092",
    "open_time": "Mon-Sun 14:00-22:00",
    "url": "http://www.remixtaipei.com/",
    "latitude": 25.0448945,
    "longitude": 121.5046078
  },
  {
    "area": "北投",
    "name": "9 PLUS荷豐溫泉會館",
    "address": "台北市北投區溫泉路銀光巷1號",
    "tel": "(02)2897-9955",
    "open_time": "需電話預約",
    "url": "http://www.lotusspa.com.tw",
    "latitude": 25.136655,
    "longitude": 121.513111
  },
  {
    "area": "萬華",
    "name": "西園2 9 服飾創作基地",
    "address": "台北市萬華區西園路二段9號",
    "tel": "(02)2336-7599",
    "open_time": "Mon-Fri 09:30-17:00                                                                                                                                                                                             Sat-Sun 10:00-19:00",
    "url": "http://fit29.pixnet.net/blog",
    "latitude": 25.032339,
    "longitude": 121.498206
  },
  {
    "area": "溫羅汀",
    "name": "Okey Dokey Gallery& Cafe",
    "address": "台北市溫州街58巷2號1樓",
    "tel": "(02)2368-9899",
    "open_time": "Mon-Sun 11:00-23:00",
    "url": "http://www.facebook.com/#!/okeydokey.gallery.cafe",
    "latitude": 25.020625,
    "longitude": 121.532935
  },
  {
    "area": "北投",
    "name": "漾館時尚溫泉飯店",
    "address": "台北市北投區溫泉路63號",
    "tel": "(02)2891-1118",
    "open_time": "需電話預約",
    "url": "http://www.aquabella.com.tw/",
    "latitude": 25.1352149,
    "longitude": 121.504661
  },
  {
    "area": "北投",
    "name": "卡通巴士",
    "address": "台北市北投區光明路118號2樓",
    "tel": "(02)2898-1979",
    "open_time": "Mon-Fri 11:00~22:00 \nSat10:00~22:00 \nSun10:00~18:00",
    "url": "http://tw.myblog.yahoo.com/cartoon_bus/profile",
    "latitude": 25.133226,
    "longitude": 121.501762
  },
  {
    "area": "溫羅汀",
    "name": "水源劇場",
    "address": "台北市中正區羅斯福路四段92號10樓",
    "tel": "(02)2362-5221",
    "open_time": "需電話預約",
    "url": "http://www.culture.gov.tw/frontsite/outsource/venuesAction.do?method=doFindVenuesActivity&venuesId=36&subMenuId=null",
    "latitude": 25.0137429,
    "longitude": 121.535005
  },
  {
    "area": "萬華",
    "name": "美國工廠 總店",
    "address": "台北市萬華區武昌街2段116-3號",
    "tel": "(02)2388-1623",
    "open_time": "Mon-Fri 13:00-22:00\nSat 12:30-23:00 Sun12:30-22:00",
    "url": "http://www.usfactory1993.com/",
    "latitude": 25.045178,
    "longitude": 121.5044892
  },
  {
    "area": "北投",
    "name": "北投溫泉博物館",
    "address": "台北市北投區中山路2號 ",
    "tel": "(02)2893-9981",
    "open_time": "Tue-Sun 09:00-17:00(Mon off)  ",
    "url": "http://beitoumuseum.taipei.gov.tw/",
    "latitude": 25.1366768,
    "longitude": 121.5071626
  },
  {
    "area": "北投",
    "name": "北投麗禧溫泉酒店",
    "address": "台北市北投區幽雅路30號?",
    "tel": "(02)2898-8888",
    "open_time": "需電話預約",
    "url": "http://www.gvrb.com.tw/",
    "latitude": 25.137952,
    "longitude": 121.514833
  },
  {
    "area": "北投",
    "name": "少帥禪園",
    "address": "台北市北投區幽雅路34號",
    "tel": "(02)2893-5336",
    "open_time": "Mon-Sun 10:00-21:00",
    "url": "http://www.sgarden.com.tw/",
    "latitude": 25.138573,
    "longitude": 121.513749
  },
  {
    "area": "萬華",
    "name": "小花園繡花鞋",
    "address": "台北市萬華區峨嵋街70號",
    "tel": "(02)2311-0045",
    "open_time": "Mon-Sun 12:30-18:00",
    "url": "http://tw.myblog.yahoo.com/little-garden",
    "latitude": 25.043417,
    "longitude": 121.5078836
  },
  {
    "area": "大稻埕",
    "name": "URS155|Cooking Together",
    "address": "臺北市迪化街一段155號",
    "tel": "02-2552-0349",
    "open_time": "Tue-Sun 11:00-19:00",
    "url": "https://www.facebook.com/cookingtogether155/",
    "latitude": 25.058382,
    "longitude": 121.509703
  },
  {
    "area": "萬華",
    "name": "SCREAMING",
    "address": "台北市萬華區昆明街109號B1",
    "tel": "(02)2389-6936",
    "open_time": "Mon-Sun 15:00-21:00",
    "url": "http://www.screaming.com.tw/",
    "latitude": 25.042131,
    "longitude": 121.504735
  },
  {
    "area": "萬華",
    "name": "西門紅樓文史工作室",
    "address": "台北市萬華區成都路10號",
    "tel": "(02)2371-8800",
    "open_time": "Tue-Sun 11:00-21:30                        Fri-Sat 11:00-22:00(Mon off )",
    "url": "http://www.redhouse.org.tw/Index_New.aspx",
    "latitude": 25.041943,
    "longitude": 121.506638
  },
  {
    "area": "萬華",
    "name": "紅玫瑰手工旗袍",
    "address": "台北市萬華區萬大路463號1樓",
    "tel": "(02)-2309 4901",
    "open_time": "Mon-Sat 10:00-21:00                                                                                                                               Sun 11:00-17:00",
    "url": "http://www.facebook.com/pages/紅玫瑰手工旗袍/253325611385546",
    "latitude": 25.020612,
    "longitude": 121.498289
  },
  {
    "area": "北投",
    "name": "北投倆人旅店",
    "address": "台北市北投區幽雅路11號",
    "tel": "(02)2897-3611",
    "open_time": "需電話預約",
    "url": "http://doubleone.hotel.com.tw/",
    "latitude": 25.136942,
    "longitude": 121.513508
  },
  {
    "area": "北投",
    "name": "台灣技術劇場協會（新北投71園區）",
    "address": "台北市北投區開明街71號B101室??",
    "tel": "(02)2892-1709?",
    "open_time": "不對外開放",
    "url": "http://www.tatt.org.tw/index.asp",
    "latitude": 25.141381,
    "longitude": 121.502447
  },
  {
    "area": "萬華",
    "name": "剝皮寮歷史街區",
    "address": "台北市萬華區廣州街與康定路口",
    "tel": "(02)2336-1704",
    "open_time": "Tue-Sun 09:00-17:00 (Mon off)",
    "url": "http://59.120.8.196/enable2007/modules/tinyd1/index.php?id=6",
    "latitude": 25.0366409,
    "longitude": 121.5011477
  }
]